<?xml version="1.0" encoding="UTF-8"?>
<kml xmlns="http://www.opengis.net/kml/2.2">
  <Document>
    <name>天売島</name>
    <description/>
    <Style id="icon-1899-FF5252-labelson-nodesc">
      <IconStyle>
        <color>ff5252ff</color>
        <scale>1</scale>
        <Icon>
          <href>https://www.gstatic.com/mapspro/images/stock/503-wht-blank_maps.png</href>
        </Icon>
        <hotSpot x="32" xunits="pixels" y="64" yunits="insetPixels"/>
      </IconStyle>
      <BalloonStyle>
        <text><![CDATA[<h3>$[name]</h3>]]></text>
      </BalloonStyle>
    </Style>
    <Style id="line-FF5252-1200-nodesc-normal">
      <LineStyle>
        <color>ff5252ff</color>
        <width>1.2</width>
      </LineStyle>
      <BalloonStyle>
        <text><![CDATA[<h3>$[name]</h3>]]></text>
      </BalloonStyle>
    </Style>
    <Style id="line-FF5252-1200-nodesc-highlight">
      <LineStyle>
        <color>ff5252ff</color>
        <width>1.8</width>
      </LineStyle>
      <BalloonStyle>
        <text><![CDATA[<h3>$[name]</h3>]]></text>
      </BalloonStyle>
    </Style>
    <StyleMap id="line-FF5252-1200-nodesc">
      <Pair>
        <key>normal</key>
        <styleUrl>#line-FF5252-1200-nodesc-normal</styleUrl>
      </Pair>
      <Pair>
        <key>highlight</key>
        <styleUrl>#line-FF5252-1200-nodesc-highlight</styleUrl>
      </Pair>
    </StyleMap>
    <Folder>
      <name>無題のレイヤ</name>
      <Placemark>
        <name>天売マフレ</name>
        <styleUrl>#icon-1899-FF5252-labelson-nodesc</styleUrl>
        <Point>
          <coordinates>
            141.3296242,44.4358799,0
          </coordinates>
        </Point>
      </Placemark>
      <Placemark>
        <name>天売フェリーターミナル</name>
        <styleUrl>#icon-1899-FF5252-labelson-nodesc</styleUrl>
        <Point>
          <coordinates>
            141.3271237,44.438866,0
          </coordinates>
        </Point>
      </Placemark>
      <Placemark>
        <name>黒崎海岸</name>
        <styleUrl>#icon-1899-FF5252-labelson-nodesc</styleUrl>
        <Point>
          <coordinates>
            141.3149604,44.4151505,0
          </coordinates>
        </Point>
      </Placemark>
      <Placemark>
        <name>赤岩展望台</name>
        <styleUrl>#icon-1899-FF5252-labelson-nodesc</styleUrl>
        <Point>
          <coordinates>
            141.2935466,44.4145663,0
          </coordinates>
        </Point>
      </Placemark>
      <Placemark>
        <name>海鳥観察舎</name>
        <styleUrl>#icon-1899-FF5252-labelson-nodesc</styleUrl>
        <Point>
          <coordinates>
            141.2986326,44.4223419,0
          </coordinates>
        </Point>
      </Placemark>
      <Placemark>
        <name>千鳥ケ浦園地</name>
        <styleUrl>#icon-1899-FF5252-labelson-nodesc</styleUrl>
        <Point>
          <coordinates>
            141.3022446,44.4216361,0
          </coordinates>
        </Point>
      </Placemark>
      <Placemark>
        <name>観音岬展望台</name>
        <styleUrl>#icon-1899-FF5252-labelson-nodesc</styleUrl>
        <Point>
          <coordinates>
            141.3148317,44.4325758,0
          </coordinates>
        </Point>
      </Placemark>
      <Placemark>
        <name>林内のフットパス</name>
        <styleUrl>#icon-1899-FF5252-labelson-nodesc</styleUrl>
        <Point>
          <coordinates>
            141.3232169,44.4284999,0
          </coordinates>
        </Point>
      </Placemark>
      <Placemark>
        <name>休憩舎ノゴマ館</name>
        <styleUrl>#icon-1899-FF5252-labelson-nodesc</styleUrl>
        <Point>
          <coordinates>
            141.3198154,44.4274486,0
          </coordinates>
        </Point>
      </Placemark>
      <Placemark>
        <name>フットパス入り口</name>
        <styleUrl>#icon-1899-FF5252-labelson-nodesc</styleUrl>
        <Point>
          <coordinates>
            141.3248625,44.4361676,0
          </coordinates>
        </Point>
      </Placemark>
      <Placemark>
        <name>ライン 10</name>
        <styleUrl>#line-FF5252-1200-nodesc</styleUrl>
        <LineString>
          <tessellate>1</tessellate>
          <coordinates>
            141.3250342,44.4363668,0
            141.3257852,44.4339306,0
            141.3255277,44.4327355,0
            141.3249698,44.4316476,0
            141.324133,44.4302686,0
            141.323103,44.4303452,0
            141.3226309,44.4302379,0
            141.3222661,44.4298855,0
            141.3228884,44.4292879,0
            141.3227167,44.4287056,0
          </coordinates>
        </LineString>
      </Placemark>
      <Placemark>
        <name>ライン 11</name>
        <styleUrl>#line-FF5252-1200-nodesc</styleUrl>
        <LineString>
          <tessellate>1</tessellate>
          <coordinates>
            141.3227167,44.4287056,0
            141.3209787,44.428016,0
            141.3197341,44.4279241,0
            141.3202491,44.4266676,0
            141.3150564,44.4218556,0
          </coordinates>
        </LineString>
      </Placemark>
    </Folder>
  </Document>
</kml>
